{
  "abraham": {
    "name": "亞伯拉罕遷徙之旅",
    "ref": "創世記 11-13",
    "color": "#b5651d",
    "testament": "OT",
    "books": ["創世記"],
    "summary": "亞伯拉罕奉召離開吾珥，經哈蘭進入應許之地迦南，因饑荒下埃及，後返回定居希伯崙。",
    "waypoints": [
      {"name": "吾珥", "lat": 30.96, "lng": 46.1, "ref": "創11:31", "note": "迦勒底的吾珥，亞伯拉罕的故鄉。"},
      {"name": "哈蘭", "lat": 36.87, "lng": 39.03, "ref": "創11:31", "note": "他拉一家暫居於此，他拉死後神再呼召亞伯拉罕。"},
      {"name": "示劍", "lat": 32.21, "lng": 35.28, "ref": "創12:6", "note": "進迦南後首站，神在摩利橡樹處應許此地。"},
      {"name": "伯特利", "lat": 31.93, "lng": 35.22, "ref": "創12:8", "note": "在此築壇求告耶和華的名。"},
      {"name": "埃及", "lat": 26.8, "lng": 30.8, "ref": "創12:10", "note": "因迦南饑荒下埃及寄居。"},
      {"name": "希伯崙", "lat": 31.53, "lng": 35.1, "ref": "創13:18", "note": "回迦南後遷至幔利橡樹，定居築壇。"}
    ]
  },
  "exodus": {
    "name": "出埃及路線",
    "ref": "出埃及記 12 - 民數記 33",
    "color": "#c0392b",
    "testament": "OT",
    "books": ["出埃及記", "利未記", "民數記"],
    "summary": "以色列人從蘭塞出發，過紅海、到西奈山領受律法，經加低斯曠野漂流，最終抵摩押平原預備進迦南。",
    "waypoints": [
      {"name": "蘭塞", "lat": 30.8, "lng": 31.83, "ref": "出12:37", "note": "以色列人從埃及蘭塞起行。"},
      {"name": "疏割", "lat": 30.62, "lng": 32.1, "ref": "出12:37", "note": "出埃及第一個紮營地。"},
      {"name": "紅海", "lat": 29.5, "lng": 32.9, "ref": "出14", "note": "神分開紅海，以色列人走乾地過海。"},
      {"name": "西奈山", "lat": 28.54, "lng": 33.97, "ref": "出19", "note": "神在此頒佈十誡與律法，立約。"},
      {"name": "加低斯", "lat": 30.84, "lng": 34.45, "ref": "民13:26", "note": "差派十二探子之處，後因不信在曠野漂流。"},
      {"name": "摩押平原", "lat": 31.87, "lng": 35.62, "ref": "民22:1", "note": "約但河東、耶利哥對面，進迦南前的最後紮營地。"}
    ]
  },
  "jacob": {
    "name": "雅各往返巴旦亞蘭",
    "ref": "創世記 28-35",
    "color": "#2a7f62",
    "testament": "OT",
    "books": ["創世記"],
    "summary": "雅各為躲避以掃離家，於伯特利夢見天梯，投奔哈蘭舅父拉班；二十年後帶妻兒返迦南，在毗努伊勒與神摔跤，重回伯特利。",
    "waypoints": [
      {"name": "別是巴", "lat": 31.25, "lng": 34.79, "ref": "創28:10", "note": "雅各從別是巴起行往哈蘭。"},
      {"name": "伯特利", "lat": 31.93, "lng": 35.22, "ref": "創28:19", "note": "夢見通天的梯子，神重申應許。"},
      {"name": "哈蘭", "lat": 36.87, "lng": 39.03, "ref": "創29:4", "note": "投奔舅父拉班，娶利亞、拉結，生十一子。"},
      {"name": "毗努伊勒", "lat": 32.19, "lng": 35.68, "ref": "創32:30", "note": "與神摔跤得名以色列，雅博渡口附近。"},
      {"name": "示劍", "lat": 32.21, "lng": 35.28, "ref": "創33:18", "note": "平安回到迦南，在示劍城前支搭帳棚。"},
      {"name": "伯特利", "lat": 31.93, "lng": 35.22, "ref": "創35:1", "note": "神召雅各回伯特利築壇，潔淨全家。"}
    ]
  }
}
