{
  "abraham": {
    "name": "亞伯拉罕遷徙之旅",
    "ref": "創世記 11-13",
    "color": "#b5651d",
    "testament": "OT",
    "books": ["創世記"],
    "summary": "亞伯拉罕奉召離開吾珥，經哈蘭進入應許之地迦南，因饑荒下埃及，後返回定居希伯崙。",
    "waypoints": [
      {"name": "吾珥", "lat": 30.96, "lng": 46.1, "ref": "創11:31", "note": "迦勒底的吾珥，亞伯拉罕的故鄉。"},
      {"name": "哈蘭", "lat": 36.87, "lng": 39.03, "ref": "創11:31", "note": "他拉一家暫居於此，他拉死後神再呼召亞伯拉罕。"},
      {"name": "示劍", "lat": 32.21, "lng": 35.28, "ref": "創12:6", "note": "進迦南後首站，神在摩利橡樹處應許此地。"},
      {"name": "伯特利", "lat": 31.93, "lng": 35.22, "ref": "創12:8", "note": "在此築壇求告耶和華的名。"},
      {"name": "埃及", "lat": 26.8, "lng": 30.8, "ref": "創12:10", "note": "因迦南饑荒下埃及寄居。"},
      {"name": "希伯崙", "lat": 31.53, "lng": 35.1, "ref": "創13:18", "note": "回迦南後遷至幔利橡樹，定居築壇。"}
    ]
  },
  "exodus": {
    "name": "出埃及路線",
    "ref": "出埃及記 12 - 民數記 33",
    "color": "#c0392b",
    "testament": "OT",
    "books": ["出埃及記", "利未記", "民數記"],
    "summary": "以色列人從蘭塞出發，過紅海、到西奈山領受律法，經加低斯曠野漂流，最終抵摩押平原預備進迦南。",
    "waypoints": [
      {"name": "蘭塞", "lat": 30.8, "lng": 31.83, "ref": "出12:37", "note": "以色列人從埃及蘭塞起行。"},
      {"name": "疏割", "lat": 30.62, "lng": 32.1, "ref": "出12:37", "note": "出埃及第一個紮營地。"},
      {"name": "紅海", "lat": 29.5, "lng": 32.9, "ref": "出14", "note": "神分開紅海，以色列人走乾地過海。"},
      {"name": "西奈山", "lat": 28.54, "lng": 33.97, "ref": "出19", "note": "神在此頒佈十誡與律法，立約。"},
      {"name": "加低斯", "lat": 30.84, "lng": 34.45, "ref": "民13:26", "note": "差派十二探子之處，後因不信在曠野漂流。"},
      {"name": "摩押平原", "lat": 31.87, "lng": 35.62, "ref": "民22:1", "note": "約但河東、耶利哥對面，進迦南前的最後紮營地。"}
    ]
  },
  "jacob": {
    "name": "雅各往返巴旦亞蘭",
    "ref": "創世記 28-35",
    "color": "#2a7f62",
    "testament": "OT",
    "books": ["創世記"],
    "summary": "雅各為躲避以掃離家，於伯特利夢見天梯，投奔哈蘭舅父拉班；二十年後帶妻兒返迦南，在毗努伊勒與神摔跤，重回伯特利。",
    "waypoints": [
      {"name": "別是巴", "lat": 31.25, "lng": 34.79, "ref": "創28:10", "note": "雅各從別是巴起行往哈蘭。"},
      {"name": "伯特利", "lat": 31.93, "lng": 35.22, "ref": "創28:19", "note": "夢見通天的梯子，神重申應許。"},
      {"name": "哈蘭", "lat": 36.87, "lng": 39.03, "ref": "創29:4", "note": "投奔舅父拉班，娶利亞、拉結，生十一子。"},
      {"name": "毗努伊勒", "lat": 32.19, "lng": 35.68, "ref": "創32:30", "note": "與神摔跤得名以色列，雅博渡口附近。"},
      {"name": "示劍", "lat": 32.21, "lng": 35.28, "ref": "創33:18", "note": "平安回到迦南，在示劍城前支搭帳棚。"},
      {"name": "伯特利", "lat": 31.93, "lng": 35.22, "ref": "創35:1", "note": "神召雅各回伯特利築壇，潔淨全家。"}
    ]
  },
  "jesus": {
    "name": "耶穌生平足跡",
    "ref": "四福音",
    "color": "#d4a017",
    "testament": "NT",
    "books": ["馬太福音", "馬可福音", "路加福音", "約翰福音"],
    "summary": "從伯利恆降生、拿撒勒成長，到加利利傳道、行神蹟，北上該撒利亞腓立比、南下經耶利哥上耶路撒冷受難復活的主要足跡。",
    "waypoints": [
      {"name": "伯利恆", "lat": 31.704, "lng": 35.204, "ref": "路2:4", "note": "大衛的城，耶穌降生之地。"},
      {"name": "拿撒勒", "lat": 32.7, "lng": 35.3, "ref": "路2:39", "note": "加利利的拿撒勒，耶穌成長的家鄉。"},
      {"name": "約但河", "lat": 32.0, "lng": 35.55, "ref": "太3:13", "note": "在約但河受施洗約翰的洗，聖靈彷彿鴿子降下。"},
      {"name": "迦百農", "lat": 32.88, "lng": 35.575, "ref": "太4:13", "note": "加利利傳道的根據地，行多項神蹟、呼召門徒。"},
      {"name": "該撒利亞腓立比", "lat": 33.25, "lng": 35.69, "ref": "太16:13", "note": "彼得在此認信「你是基督，是永生神的兒子」。"},
      {"name": "耶利哥", "lat": 31.87, "lng": 35.44, "ref": "路19:1", "note": "醫好瞎子，撒該悔改接待主，上耶路撒冷途中。"},
      {"name": "伯大尼", "lat": 31.77, "lng": 35.27, "ref": "約11:1", "note": "叫拉撒路復活，馬利亞用香膏抹主。"},
      {"name": "耶路撒冷", "lat": 31.769, "lng": 35.214, "ref": "太21:10", "note": "騎驢進城、受難、釘十架，第三日復活。"}
    ]
  },
  "paul1": {
    "name": "保羅第一次宣教旅程",
    "ref": "使徒行傳 13-14",
    "color": "#2980b9",
    "testament": "NT",
    "books": ["使徒行傳"],
    "summary": "保羅與巴拿巴受聖靈差遣，從敘利亞安提阿出發，經居比路島轉往小亞細亞內陸傳福音、建立教會，再循原路返回安提阿。",
    "waypoints": [
      {"name": "安提阿", "lat": 36.2, "lng": 36.16, "ref": "徒13:1", "note": "敘利亞安提阿，差派的母會。"},
      {"name": "西流基", "lat": 36.12, "lng": 35.93, "ref": "徒13:4", "note": "安提阿的港口，由此乘船出海。"},
      {"name": "撒拉米", "lat": 35.18, "lng": 33.9, "ref": "徒13:5", "note": "居比路島東岸城，在會堂傳神的道。"},
      {"name": "帕弗", "lat": 34.77, "lng": 32.42, "ref": "徒13:6", "note": "島西岸，方伯士求保羅信主，行法術的以呂馬被責瞎眼。"},
      {"name": "別加", "lat": 36.96, "lng": 30.85, "ref": "徒13:13", "note": "旁非利亞的別加，馬可在此離隊返耶路撒冷。"},
      {"name": "彼西底的安提阿", "lat": 38.31, "lng": 31.19, "ref": "徒13:14", "note": "保羅在會堂講論救恩，外邦人歡喜領受。"},
      {"name": "以哥念", "lat": 37.87, "lng": 32.49, "ref": "徒14:1", "note": "許多人信主，後因逼迫而離開。"},
      {"name": "路司得", "lat": 37.58, "lng": 32.45, "ref": "徒14:6", "note": "醫好生來瘸腿者，眾人誤拜為神，保羅被石頭打。"},
      {"name": "特庇", "lat": 37.35, "lng": 33.3, "ref": "徒14:20", "note": "傳福音收門徒後，循原路堅固各教會。"},
      {"name": "亞大利", "lat": 36.88, "lng": 30.7, "ref": "徒14:25", "note": "由此港乘船返回敘利亞安提阿覆命。"}
    ]
  },
  "paul2": {
    "name": "保羅第二次宣教旅程",
    "ref": "使徒行傳 15:36 - 18:22",
    "color": "#8e44ad",
    "testament": "NT",
    "books": ["使徒行傳"],
    "summary": "保羅與西拉重訪小亞細亞眾教會，蒙馬其頓異象渡海進入歐洲，於腓立比、帖撒羅尼迦、雅典、哥林多傳道並建立教會。",
    "waypoints": [
      {"name": "安提阿", "lat": 36.2, "lng": 36.16, "ref": "徒15:35", "note": "與西拉同行，從安提阿啟程。"},
      {"name": "特庇", "lat": 37.35, "lng": 33.3, "ref": "徒16:1", "note": "陸路重訪第一次旅程的教會。"},
      {"name": "路司得", "lat": 37.58, "lng": 32.45, "ref": "徒16:1", "note": "提摩太在此加入同工。"},
      {"name": "特羅亞", "lat": 39.75, "lng": 26.16, "ref": "徒16:8", "note": "夜間異象：馬其頓人呼求過去幫助。"},
      {"name": "腓立比", "lat": 41.01, "lng": 24.29, "ref": "徒16:12", "note": "歐洲第一個教會，呂底亞信主，保羅西拉下監唱詩。"},
      {"name": "帖撒羅尼迦", "lat": 40.64, "lng": 22.94, "ref": "徒17:1", "note": "一連三個安息日辯道，後遭嫉妒生亂。"},
      {"name": "庇哩亞", "lat": 40.52, "lng": 22.2, "ref": "徒17:10", "note": "人甘心領受，天天考查聖經，較帖城更高尚。"},
      {"name": "雅典", "lat": 37.97, "lng": 23.72, "ref": "徒17:16", "note": "在亞略巴古講「未識之神」，向哲士傳講復活。"},
      {"name": "哥林多", "lat": 37.91, "lng": 22.88, "ref": "徒18:1", "note": "與亞居拉百基拉同住，住一年半建立教會。"},
      {"name": "以弗所", "lat": 37.94, "lng": 27.34, "ref": "徒18:19", "note": "回程短暫停留，應許神若許可再來。"},
      {"name": "該撒利亞", "lat": 32.5, "lng": 34.89, "ref": "徒18:22", "note": "上岸問候教會後返回安提阿。"}
    ]
  },
  "paul3": {
    "name": "保羅第三次宣教旅程",
    "ref": "使徒行傳 18:23 - 21:17",
    "color": "#16a085",
    "testament": "NT",
    "books": ["使徒行傳"],
    "summary": "保羅以以弗所為基地事奉約三年，行神蹟、道大大興旺；後巡視馬其頓與希臘，循海路返耶路撒冷，沿途辭別眾教會。",
    "waypoints": [
      {"name": "安提阿", "lat": 36.2, "lng": 36.16, "ref": "徒18:23", "note": "從安提阿出發，逐一堅固加拉太、弗呂家門徒。"},
      {"name": "以弗所", "lat": 37.94, "lng": 27.34, "ref": "徒19:1", "note": "事奉約三年，神蹟奇事，銀匠底米丟引發騷亂。"},
      {"name": "腓立比", "lat": 41.01, "lng": 24.29, "ref": "徒20:1", "note": "走遍馬其頓多方勸勉門徒。"},
      {"name": "哥林多", "lat": 37.91, "lng": 22.88, "ref": "徒20:2", "note": "在希臘住了三個月。"},
      {"name": "特羅亞", "lat": 39.75, "lng": 26.16, "ref": "徒20:6", "note": "七日的第一日擘餅講道至半夜，猶推古墜樓復活。"},
      {"name": "米利都", "lat": 37.53, "lng": 27.28, "ref": "徒20:17", "note": "召以弗所長老來，含淚道別交託主。"},
      {"name": "推羅", "lat": 33.27, "lng": 35.2, "ref": "徒21:3", "note": "停留七天，門徒被聖靈感動勸保羅勿上耶路撒冷。"},
      {"name": "該撒利亞", "lat": 32.5, "lng": 34.89, "ref": "徒21:8", "note": "住腓利家，先知亞迦布預言保羅將被捆綁。"},
      {"name": "耶路撒冷", "lat": 31.77, "lng": 35.21, "ref": "徒21:17", "note": "弟兄歡喜接待，旅程在此結束。"}
    ]
  },
  "paul_rome": {
    "name": "保羅押解羅馬之旅",
    "ref": "使徒行傳 27-28",
    "color": "#c0392b",
    "testament": "NT",
    "books": ["使徒行傳"],
    "summary": "保羅上訴於凱撒，被押解渡海赴羅馬，途中遇狂風船破，漂至馬耳他蒙保守，終抵羅馬在租屋中放膽傳道。",
    "waypoints": [
      {"name": "該撒利亞", "lat": 32.5, "lng": 34.89, "ref": "徒27:1", "note": "由百夫長猶流押解，啟程往義大利。"},
      {"name": "西頓", "lat": 33.56, "lng": 35.37, "ref": "徒27:3", "note": "猶流寬待保羅，准他探望朋友受照應。"},
      {"name": "米拉", "lat": 36.26, "lng": 29.98, "ref": "徒27:5", "note": "呂家的米拉，換乘往義大利的亞力山太船。"},
      {"name": "佳澳", "lat": 34.9, "lng": 24.91, "ref": "徒27:8", "note": "革哩底島南岸，保羅警告航行危險未被採納。"},
      {"name": "馬耳他", "lat": 35.89, "lng": 14.51, "ref": "徒28:1", "note": "船破漂至此島，眾人得救；保羅被毒蛇咬卻無恙。"},
      {"name": "敘拉古", "lat": 37.07, "lng": 15.29, "ref": "徒28:12", "note": "西西里島港城，停泊三日。"},
      {"name": "部丟利", "lat": 40.82, "lng": 14.12, "ref": "徒28:13", "note": "登義大利本土，與弟兄同住七日。"},
      {"name": "羅馬", "lat": 41.9, "lng": 12.5, "ref": "徒28:16", "note": "在自己租的房子放膽傳神國的道，無人禁止。"}
    ]
  }
}
